[
    {
        "time_zone": "Asia/Shanghai",
        "name": "Яньянь",
        "flightable": true,
        "coordinates": {
            "lon": 109.55148,
            "lat": 36.639366
        },
        "code": "ENY",
        "name_translations": {
            "en": "Ershilipu Airport"
        },
        "country_code": "CN",
        "city_code": "ENY"
    },
    {
        "time_zone": "America/Lima",
        "name": "Андауайлас",
        "flightable": true,
        "coordinates": {
            "lon": -73.355835,
            "lat": -13.716667
        },
        "code": "ANS",
        "name_translations": {
            "en": "Andahuaylas"
        },
        "country_code": "PE",
        "city_code": "ANS"
    },
    {
        "time_zone": "America/Phoenix",
        "name": null,
        "flightable": false,
        "coordinates": {
            "lon": -110.725,
            "lat": 35.024166
        },
        "code": "INW",
        "name_translations": {
            "en": "Winslow-Lindbergh"
        },
        "country_code": "US",
        "city_code": "INW"
    },
    {
        "time_zone": "Europe/Saratov",
        "name": "Гагарин",
        "flightable": true,
        "coordinates": {
            "lon": 46.166667,
            "lat": 51.716667
        },
        "code": "GSV",
        "name_translations": {
            "en": "Saratov Gagarin Airport"
        },
        "country_code": "RU",
        "city_code": "RTW"
    },
    {
        "time_zone": "Africa/Dakar",
        "name": "Блез Диань Дакар",
        "flightable": true,
        "coordinates": {
            "lon": -17.066944,
            "lat": 14.671111
        },
        "code": "DSS",
        "name_translations": {
            "en": "Blaise Diagne International Airport"
        },
        "country_code": "SN",
        "city_code": "DKR"
    },
    {
        "time_zone": "Asia/Jerusalem",
        "name": "Эйлат",
        "flightable": false,
        "coordinates": {
            "lon": 34.9339,
            "lat": 29.952015
        },
        "code": "VDA",
        "name_translations": {
            "en": "Ovda Airport"
        },
        "country_code": "IL",
        "city_code": "ETH"
    },
    {
        "time_zone": "Europe/Samara",
        "name": "Саратов Центральный",
        "flightable": true,
        "coordinates": {
            "lon": 46.066666,
            "lat": 51.566666
        },
        "code": "RTW",
        "name_translations": {
            "en": "Saratov Tsentralny Airport"
        },
        "country_code": "RU",
        "city_code": "RTW"
    },
    {
        "time_zone": "Pacific/Port_Moresby",
        "name": null,
        "flightable": false,
        "coordinates": {
            "lon": 141,
            "lat": -6.5
        },
        "code": "NGR",
        "name_translations": {
            "en": "Ningerum"
        },
        "country_code": "PG",
        "city_code": "NGR"
    },
    {
        "time_zone": "Africa/Casablanca",
        "name": "Загора",
        "flightable": true,
        "coordinates": {
            "lon": -5.852456,
            "lat": 30.267143
        },
        "code": "OZG",
        "name_translations": {
            "en": "Zagora Airport"
        },
        "country_code": "MA",
        "city_code": "OZG"
    },
    {
        "time_zone": "America/Moncton",
        "name": "Фредериктон",
        "flightable": true,
        "coordinates": {
            "lon": -66.52978,
            "lat": 45.87316
        },
        "code": "YFC",
        "name_translations": {
            "en": "Fredericton International Airport"
        },
        "country_code": "CA",
        "city_code": "YFC"
    },
    {
        "time_zone": "Indian/Mauritius",
        "name": "Сивусагур Рамгулам ",
        "flightable": true,
        "coordinates": {
            "lon": 57.67663,
            "lat": -20.431997
        },
        "code": "MRU",
        "name_translations": {
            "en": "Sir Seewoosagur Ramgoolam International Airport"
        },
        "country_code": "MU",
        "city_code": "MRU"
    },
    {
        "time_zone": "America/Montreal",
        "name": null,
        "flightable": false,
        "coordinates": {
            "lon": -69.066666,
            "lat": 48.75
        },
        "code": "YFE",
        "name_translations": {
            "en": "Forestville"
        },
        "country_code": "CA",
        "city_code": "YFE"
    },
    {
        "time_zone": "Europe/Istanbul",
        "name": "Ататюрк",
        "flightable": false,
        "coordinates": {
            "lon": 28.815277,
            "lat": 40.976665
        },
        "code": "ISL",
        "name_translations": {
            "en": "Istanbul Ataturk Airport"
        },
        "country_code": "TR",
        "city_code": "IST"
    },
    {
        "time_zone": "America/Vancouver",
        "name": "Камлупс",
        "flightable": true,
        "coordinates": {
            "lon": -120.442024,
            "lat": 50.70545
        },
        "code": "YKA",
        "name_translations": {
            "en": "Kamloops Airport"
        },
        "country_code": "CA",
        "city_code": "YKA"
    },
    {
        "time_zone": "Asia/Baku",
        "name": null,
        "flightable": false,
        "coordinates": {
            "lon": 46.664787,
            "lat": 41.56166
        },
        "code": "ZTU",
        "name_translations": {
            "en": "Zaqatala"
        },
        "country_code": "AZ",
        "city_code": "ZTU"
    },
    {
        "time_zone": "Asia/Jerusalem",
        "name": "Рамон",
        "flightable": true,
        "coordinates": {
            "lon": 118.060021,
            "lat": 50.029982
        },
        "code": "ETM",
        "name_translations": {
            "en": "Ramon Airport"
        },
        "country_code": "IL",
        "city_code": "ETH"
    },
    {
        "time_zone": "America/Montreal",
        "name": null,
        "flightable": false,
        "coordinates": {
            "lon": -71.183334,
            "lat": 54.55
        },
        "code": "YFG",
        "name_translations": {
            "en": "Fontanges"
        },
        "country_code": "CA",
        "city_code": "YFG"
    },
    {
        "time_zone": "America/New_York",
        "name": null,
        "flightable": false,
        "coordinates": {
            "lon": -77,
            "lat": 38.86667
        },
        "code": "NDV",
        "name_translations": {
            "en": "USN Heliport"
        },
        "country_code": "US",
        "city_code": "NDV"
    },
    {
        "time_zone": "Asia/Ho_Chi_Minh",
        "name": "Нячанг",
        "flightable": false,
        "coordinates": {
            "lon": 109.19666,
            "lat": 12.227912
        },
        "code": "NHA",
        "name_translations": {
            "en": "Nha Trang"
        },
        "country_code": "VN",
        "city_code": "NHA"
    },
    {
        "time_zone": "America/Toronto",
        "name": null,
        "flightable": false,
        "coordinates": {
            "lon": -87.89796,
            "lat": 51.559345
        },
        "code": "YFH",
        "name_translations": {
            "en": "Fort Hope"
        },
        "country_code": "CA",
        "city_code": "YFH"
    },
    {
        "time_zone": "Asia/Kolkata",
        "name": null,
        "flightable": false,
        "coordinates": {
            "lon": 73.811264,
            "lat": 19.966942
        },
        "code": "ISK",
        "name_translations": {
            "en": "Gandhinagar Airport"
        },
        "country_code": "IN",
        "city_code": "ISK"
    },
    {
        "time_zone": "Asia/Shanghai",
        "name": "Чжунвэй",
        "flightable": true,
        "coordinates": {
            "lon": 105.15253,
            "lat": 37.568935
        },
        "code": "ZHY",
        "name_translations": {
            "en": "Zhongwei Airport"
        },
        "country_code": "CN",
        "city_code": "ZHY"
    },
    {
        "time_zone": "America/Montreal",
        "name": null,
        "flightable": true,
        "coordinates": {
            "lon": -74.75528,
            "lat": 46.515556
        },
        "code": "YTM",
        "name_translations": {
            "en": "La Macaza"
        },
        "country_code": "CA",
        "city_code": "YTM"
    },
    {
        "time_zone": "America/Winnipeg",
        "name": null,
        "flightable": false,
        "coordinates": {
            "lon": -89.88952,
            "lat": 53.81594
        },
        "code": "YTL",
        "name_translations": {
            "en": "Big Trout"
        },
        "country_code": "CA",
        "city_code": "YTL"
    },
    {
        "time_zone": "America/New_York",
        "name": "Коламбус Метрополитен",
        "flightable": true,
        "coordinates": {
            "lon": -84.98333,
            "lat": 32.466667
        },
        "code": "CSG",
        "name_translations": {
            "en": "Columbus Airport"
        },
        "country_code": "US",
        "city_code": "CSG"
    },
    {
        "time_zone": "America/Chicago",
        "name": null,
        "flightable": false,
        "coordinates": {
            "lon": -87.00528,
            "lat": 41.4525
        },
        "code": "VPZ",
        "name_translations": {
            "en": "Porter County"
        },
        "country_code": "US",
        "city_code": "VPZ"
    },
    {
        "time_zone": "Europe/Istanbul",
        "name": "Этимесгут",
        "flightable": false,
        "coordinates": {
            "lon": 32.68955,
            "lat": 39.94949
        },
        "code": "ANK",
        "name_translations": {
            "en": "Etimesgut"
        },
        "country_code": "TR",
        "city_code": "ANK"
    },
    {
        "time_zone": "Asia/Nicosia",
        "name": null,
        "flightable": false,
        "coordinates": {
            "lon": 33.27222,
            "lat": 35.15111
        },
        "code": "NIC",
        "name_translations": {
            "en": "Nicosia International"
        },
        "country_code": "CY",
        "city_code": "NIC"
    },
    {
        "time_zone": "America/Yellowknife",
        "name": null,
        "flightable": false,
        "coordinates": {
            "lon": -109.13333,
            "lat": 62.7
        },
        "code": "YFL",
        "name_translations": {
            "en": "Fort Reliance"
        },
        "country_code": "CA",
        "city_code": "YFL"
    },
    {
        "time_zone": "Europe/Berlin",
        "name": null,
        "flightable": false,
        "coordinates": null,
        "code": "ZIT",
        "name_translations": {
            "en": "Zittau Railway Station"
        },
        "country_code": "DE",
        "city_code": "ZIT"
    },
    {
        "time_zone": "America/New_York",
        "name": null,
        "flightable": false,
        "coordinates": {
            "lon": -74.316666,
            "lat": 40.016666
        },
        "code": "NEL",
        "name_translations": {
            "en": "Naec"
        },
        "country_code": "US",
        "city_code": "NEL"
    },
    {
        "time_zone": "America/New_York",
        "name": null,
        "flightable": false,
        "coordinates": {
            "lon": -77.89056,
            "lat": 35.854443
        },
        "code": "RWI",
        "name_translations": {
            "en": "Rocky Mount-wilson"
        },
        "country_code": "US",
        "city_code": "RWI"
    },
    {
        "time_zone": "America/Yellowknife",
        "name": null,
        "flightable": false,
        "coordinates": {
            "lon": -121.23333,
            "lat": 61.75
        },
        "code": "YFS",
        "name_translations": {
            "en": "Fort Simpson"
        },
        "country_code": "CA",
        "city_code": "YFS"
    },
    {
        "time_zone": "Africa/Addis_Ababa",
        "name": "Кабри-Дар",
        "flightable": false,
        "coordinates": {
            "lon": 44.26611,
            "lat": 6.733889
        },
        "code": "ABK",
        "name_translations": {
            "en": "Kabri Dar"
        },
        "country_code": "ET",
        "city_code": "ABK"
    },
    {
        "time_zone": "America/Montreal",
        "name": null,
        "flightable": false,
        "coordinates": {
            "lon": -68.13333,
            "lat": 51.95
        },
        "code": "YGA",
        "name_translations": {
            "en": "Gagnon"
        },
        "country_code": "CA",
        "city_code": "YGA"
    },
    {
        "time_zone": "America/New_York",
        "name": null,
        "flightable": false,
        "coordinates": {
            "lon": -81.85,
            "lat": 30.316668
        },
        "code": "NEN",
        "name_translations": {
            "en": "Olf Usn"
        },
        "country_code": "US",
        "city_code": "NEN"
    },
    {
        "time_zone": "Australia/Perth",
        "name": "Нифти",
        "flightable": true,
        "coordinates": {
            "lon": 121.58611,
            "lat": -21.675
        },
        "code": "NIF",
        "name_translations": {
            "en": "Nifty Airport"
        },
        "country_code": "AU",
        "city_code": "NIF"
    },
    {
        "time_zone": "Asia/Yakutsk",
        "name": "Чульман",
        "flightable": true,
        "coordinates": {
            "lon": 124.6,
            "lat": 56.65
        },
        "code": "NER",
        "name_translations": {
            "en": "Neryungri Airport"
        },
        "country_code": "RU",
        "city_code": "NER"
    },
    {
        "time_zone": "America/Edmonton",
        "name": null,
        "flightable": false,
        "coordinates": {
            "lon": -118.86667,
            "lat": 53.916668
        },
        "code": "YGC",
        "name_translations": {
            "en": "Grande Cache"
        },
        "country_code": "CA",
        "city_code": "YGC"
    },
    {
        "time_zone": "Asia/Yakutsk",
        "name": "Жиганск",
        "flightable": true,
        "coordinates": {
            "lon": 123.361389,
            "lat": 66.796667
        },
        "code": "ZIX",
        "name_translations": {
            "en": "Zhigansk Airport"
        },
        "country_code": "RU",
        "city_code": "ZIX"
    },
    {
        "time_zone": "America/Vancouver",
        "name": null,
        "flightable": false,
        "coordinates": {
            "lon": -126.85,
            "lat": 50.85
        },
        "code": "YGN",
        "name_translations": {
            "en": "Greenway Sound"
        },
        "country_code": "CA",
        "city_code": "YGN"
    },
    {
        "time_zone": "America/Nassau",
        "name": null,
        "flightable": false,
        "coordinates": {
            "lon": -75.45,
            "lat": 24.32
        },
        "code": "NET",
        "name_translations": {
            "en": "New Bight"
        },
        "country_code": "BS",
        "city_code": "NET"
    },
    {
        "time_zone": "Asia/Yakutsk",
        "name": "Талакан",
        "flightable": true,
        "coordinates": {
            "lon": 111.0437053,
            "lat": 59.8692028
        },
        "code": "TLK",
        "name_translations": {
            "en": "Talakan"
        },
        "country_code": "RU",
        "city_code": "TLK"
    },
    {
        "time_zone": "America/Montreal",
        "name": "Метрополитан Ареа",
        "flightable": true,
        "coordinates": {
            "lon": -64.48333,
            "lat": 48.766666
        },
        "code": "YGP",
        "name_translations": {
            "en": "Michel-Pouliot Gaspe Airport"
        },
        "country_code": "CA",
        "city_code": "YGP"
    },
    {
        "time_zone": "Africa/Kinshasa",
        "name": "Ниоки",
        "flightable": false,
        "coordinates": {
            "lon": 17.7,
            "lat": -2.75
        },
        "code": "NIO",
        "name_translations": {
            "en": "Nioki"
        },
        "country_code": "CD",
        "city_code": "NIO"
    },
    {
        "time_zone": "Europe/Warsaw",
        "name": "Люблин",
        "flightable": false,
        "coordinates": {
            "lon": 22.713611,
            "lat": 51.240278
        },
        "code": "QLU",
        "name_translations": {
            "en": "Lublin"
        },
        "country_code": "PL",
        "city_code": "QLU"
    },
    {
        "time_zone": "Asia/Srednekolymsk",
        "name": "Итуруп",
        "flightable": true,
        "coordinates": {
            "lon": 147.95583,
            "lat": 45.25611
        },
        "code": "ITU",
        "name_translations": {
            "en": "Iturup"
        },
        "country_code": "RU",
        "city_code": "ITU"
    },
    {
        "time_zone": "Asia/Bishkek",
        "name": "Баткен",
        "flightable": true,
        "coordinates": {
            "lon": 70.838056,
            "lat": 40.0425
        },
        "code": "БАТ",
        "name_translations": {
            "en": "Batken"
        },
        "country_code": "KG",
        "city_code": "БАТ"
    },
    {
        "time_zone": "America/New_York",
        "name": null,
        "flightable": false,
        "coordinates": {
            "lon": -77.666664,
            "lat": 36.466667
        },
        "code": "RZZ",
        "name_translations": {
            "en": "Halifax County"
        },
        "country_code": "US",
        "city_code": "RZZ"
    },
    {
        "time_zone": "Asia/Shanghai",
        "name": "Железнодорожная станция Даньян",
        "flightable": false,
        "coordinates": {
            "lon": 0,
            "lat": 0
        },
        "code": "DYN",
        "name_translations": {
            "en": "Danyang Railway Station"
        },
        "country_code": "CN",
        "city_code": "SHA"
    },
    {
        "time_zone": "America/Toronto",
        "name": null,
        "flightable": false,
        "coordinates": {
            "lon": -86.95,
            "lat": 49.733334
        },
        "code": "YGQ",
        "name_translations": {
            "en": "Geraldton"
        },
        "country_code": "CA",
        "city_code": "YGQ"
    },
    {
        "time_zone": "Asia/Yakutsk",
        "name": "Вилюйск",
        "flightable": false,
        "coordinates": {
            "lon": 121.69306,
            "lat": 63.75639
        },
        "code": "VYI",
        "name_translations": {
            "en": "Vilyuisk"
        },
        "country_code": "RU",
        "city_code": "VYI"
    },
    {
        "time_zone": "Asia/Muscat",
        "name": "Sohar Airport",
        "flightable": true,
        "coordinates": {
            "lon": 56.6205283,
            "lat": 24.3900727
        },
        "code": "OHS",
        "name_translations": {
            "en": "Sohar Airport"
        },
        "country_code": "OM",
        "city_code": "MCT"
    },
    {
        "time_zone": "America/Chicago",
        "name": null,
        "flightable": false,
        "coordinates": {
            "lon": -97.75,
            "lat": 28.4
        },
        "code": "NIR",
        "name_translations": {
            "en": "Chase Field NAS"
        },
        "country_code": "US",
        "city_code": "NIR"
    },
    {
        "time_zone": "America/Montreal",
        "name": "Кууджуарапик",
        "flightable": true,
        "coordinates": {
            "lon": -77.76667,
            "lat": 55.279167
        },
        "code": "YGW",
        "name_translations": {
            "en": "Kuujjuarapik Airport"
        },
        "country_code": "CA",
        "city_code": "YGW"
    },
    {
        "time_zone": "Asia/Jayapura",
        "name": null,
        "flightable": false,
        "coordinates": {
            "lon": 110.46667,
            "lat": -5.85
        },
        "code": "NKD",
        "name_translations": {
            "en": "Sinak"
        },
        "country_code": "ID",
        "city_code": "NKD"
    },
    {
        "time_zone": "America/St_Johns",
        "name": "Шарлоттаун",
        "flightable": false,
        "coordinates": {
            "lon": -56.1,
            "lat": 52.766666
        },
        "code": "YHG",
        "name_translations": {
            "en": "Charlottetown"
        },
        "country_code": "CA",
        "city_code": "YHG"
    },
    {
        "time_zone": "America/Winnipeg",
        "name": null,
        "flightable": false,
        "coordinates": {
            "lon": -94.7,
            "lat": 56.35
        },
        "code": "YGX",
        "name_translations": {
            "en": "Gillam"
        },
        "country_code": "CA",
        "city_code": "YGX"
    },
    {
        "time_zone": "Europe/Istanbul",
        "name": "Адана",
        "flightable": true,
        "coordinates": {
            "lon": 35.29736,
            "lat": 36.98503
        },
        "code": "ADA",
        "name_translations": {
            "en": "Adana Airport"
        },
        "country_code": "TR",
        "city_code": "ADA"
    },
    {
        "time_zone": "America/Vancouver",
        "name": null,
        "flightable": false,
        "coordinates": {
            "lon": -125.26556,
            "lat": 49.94639
        },
        "code": "YHH",
        "name_translations": {
            "en": "Harbor SPB"
        },
        "country_code": "CA",
        "city_code": "YBL"
    },
    {
        "time_zone": "Asia/Yakutsk",
        "name": "Депутатский",
        "flightable": true,
        "coordinates": {
            "lon": 139.89917,
            "lat": 69.39167
        },
        "code": "DPT",
        "name_translations": {
            "en": "Deputatsky"
        },
        "country_code": "RU",
        "city_code": "DPT"
    },
    {
        "time_zone": "Europe/Berlin",
        "name": "Leverkusen Mitte",
        "flightable": true,
        "coordinates": {
            "lon": 6.9833,
            "lat": 51.0333
        },
        "code": "QLV",
        "name_translations": {
            "en": "Leverkusen Mitte"
        },
        "country_code": "DE",
        "city_code": "QLV"
    },
    {
        "time_zone": "America/St_Johns",
        "name": null,
        "flightable": false,
        "coordinates": {
            "lon": -56.3,
            "lat": 52.533333
        },
        "code": "YHA",
        "name_translations": {
            "en": "Port Hope Simpson"
        },
        "country_code": "CA",
        "city_code": "YHA"
    },
    {
        "time_zone": "Europe/Helsinki",
        "name": "Хельсинки (жд вокзал)",
        "flightable": true,
        "coordinates": {
            "lon": 24.941389,
            "lat": 60.171944
        },
        "code": "HEC",
        "name_translations": {
            "en": "Helsinki Central Station"
        },
        "country_code": "FI",
        "city_code": "HEL"
    },
    {
        "time_zone": "Asia/Bishkek",
        "name": "Иссык-Куль",
        "flightable": true,
        "coordinates": {
            "lon": 76.6895483,
            "lat": 42.586833
        },
        "code": "IKU",
        "name_translations": {
            "en": "Issyk-Kul International Airport"
        },
        "country_code": "KG",
        "city_code": "IKU"
    },
    {
        "time_zone": "America/Toronto",
        "name": null,
        "flightable": false,
        "coordinates": {
            "lon": -83.683334,
            "lat": 49.716667
        },
        "code": "YHF",
        "name_translations": {
            "en": "Hearst"
        },
        "country_code": "CA",
        "city_code": "YHF"
    },
    {
        "time_zone": "Asia/Vladivostok",
        "name": "Кневичи",
        "flightable": true,
        "coordinates": {
            "lon": 132.14075,
            "lat": 43.378574
        },
        "code": "VVO",
        "name_translations": {
            "en": "Vladivostok International Airport"
        },
        "country_code": "RU",
        "city_code": "VVO"
    },
    {
        "time_zone": "Asia/Tokyo",
        "name": null,
        "flightable": false,
        "coordinates": {
            "lon": 139.35,
            "lat": 35.416668
        },
        "code": "NJA",
        "name_translations": {
            "en": "Atsugi NAS"
        },
        "country_code": "JP",
        "city_code": "NJA"
    },
    {
        "time_zone": "Europe/Moscow",
        "name": "Жуковский",
        "flightable": true,
        "coordinates": {
            "lon": 38.1419636,
            "lat": 55.5690146
        },
        "code": "ZIA",
        "name_translations": {
            "en": "Zhukovsky International Airport"
        },
        "country_code": "RU",
        "city_code": "MOW"
    },
    {
        "time_zone": "Africa/Libreville",
        "name": "Нкан",
        "flightable": false,
        "coordinates": {
            "lon": 9.983333,
            "lat": 0.7
        },
        "code": "NKA",
        "name_translations": {
            "en": "Nkan"
        },
        "country_code": "GA",
        "city_code": "NKA"
    },
    {
        "time_zone": "Asia/Shanghai",
        "name": "Южная железнодорожная станция Куншан",
        "flightable": false,
        "coordinates": {
            "lon": 0,
            "lat": 0
        },
        "code": "KVN",
        "name_translations": {
            "en": "Kunshan South Railway Station"
        },
        "country_code": "CN",
        "city_code": "SHA"
    },
    {
        "time_zone": "America/Anchorage",
        "name": null,
        "flightable": false,
        "coordinates": {
            "lon": -133.21666,
            "lat": 55.36667
        },
        "code": "NKI",
        "name_translations": {
            "en": "Naukiti"
        },
        "country_code": "US",
        "city_code": "NKI"
    },
    {
        "time_zone": "Asia/Shanghai",
        "name": "Железнодорожная станция Сюйчжоу",
        "flightable": false,
        "coordinates": {
            "lon": 0,
            "lat": 0
        },
        "code": "XUK",
        "name_translations": {
            "en": "Xuzhou Railway Station"
        },
        "country_code": "CN",
        "city_code": "XUZ"
    },
    {
        "time_zone": "Europe/Samara",
        "name": "Астрахань",
        "flightable": true,
        "coordinates": {
            "lon": 47.999977,
            "lat": 46.2877
        },
        "code": "ASF",
        "name_translations": {
            "en": "Astrakhan Airport"
        },
        "country_code": "RU",
        "city_code": "ASF"
    },
    {
        "time_zone": "Asia/Shanghai",
        "name": "Нинбо",
        "flightable": true,
        "coordinates": {
            "lon": 121.462395,
            "lat": 29.820415
        },
        "code": "NGB",
        "name_translations": {
            "en": "Ningbo Airport"
        },
        "country_code": "CN",
        "city_code": "NGB"
    },
    {
        "time_zone": "America/Vancouver",
        "name": "Уильямс Лейк",
        "flightable": true,
        "coordinates": {
            "lon": -122.04444,
            "lat": 52.184723
        },
        "code": "YWL",
        "name_translations": {
            "en": "Williams Lake Airport"
        },
        "country_code": "CA",
        "city_code": "YWL"
    },
    {
        "time_zone": "America/Metlakatla",
        "name": null,
        "flightable": false,
        "coordinates": {
            "lon": -131.58333,
            "lat": 55.13333
        },
        "code": "MTM",
        "name_translations": {
            "en": "SPB"
        },
        "country_code": "US",
        "city_code": "MTM"
    },
    {
        "time_zone": "Asia/Shanghai",
        "name": "Железнодорожная станция Нанкин",
        "flightable": false,
        "coordinates": {
            "lon": 0,
            "lat": 0
        },
        "code": "NKJ",
        "name_translations": {
            "en": "Nanjing South Railway Station"
        },
        "country_code": "CN",
        "city_code": "NKG"
    },
    {
        "time_zone": "Asia/Shanghai",
        "name": "Железнодорожная станция Иу",
        "flightable": false,
        "coordinates": {
            "lon": 0,
            "lat": 0
        },
        "code": "YIU",
        "name_translations": {
            "en": "Yiwu Railway Station"
        },
        "country_code": "CN",
        "city_code": "YIW"
    },
    {
        "time_zone": "America/Toronto",
        "name": null,
        "flightable": false,
        "coordinates": {
            "lon": -84.78333,
            "lat": 49.216667
        },
        "code": "YHN",
        "name_translations": {
            "en": "Hornepayne"
        },
        "country_code": "CA",
        "city_code": "YHN"
    },
    {
        "time_zone": "Europe/Moscow",
        "name": "Домодедово",
        "flightable": true,
        "coordinates": {
            "lon": 37.899494,
            "lat": 55.414566
        },
        "code": "DME",
        "name_translations": {
            "en": "Moscow Domodedovo Airport"
        },
        "country_code": "RU",
        "city_code": "MOW"
    },
    {
        "time_zone": "Africa/Kinshasa",
        "name": "Нколо",
        "flightable": false,
        "coordinates": {
            "lon": 16.466667,
            "lat": -1.983333
        },
        "code": "NKL",
        "name_translations": {
            "en": "Nkolo"
        },
        "country_code": "CD",
        "city_code": "NKL"
    },
    {
        "time_zone": "America/Panama",
        "name": "Наргана",
        "flightable": false,
        "coordinates": {
            "lon": -79.25,
            "lat": 9.568611
        },
        "code": "NGN",
        "name_translations": {
            "en": "Nargana"
        },
        "country_code": "PA",
        "city_code": "NGN"
    },
    {
        "time_zone": "America/Whitehorse",
        "name": null,
        "flightable": false,
        "coordinates": {
            "lon": -137.5,
            "lat": 60.75
        },
        "code": "YHT",
        "name_translations": {
            "en": "Haines Junction"
        },
        "country_code": "CA",
        "city_code": "YHT"
    },
    {
        "time_zone": "America/Regina",
        "name": null,
        "flightable": false,
        "coordinates": {
            "lon": -105.6,
            "lat": 57.25
        },
        "code": "YKJ",
        "name_translations": {
            "en": "Key Lake"
        },
        "country_code": "CA",
        "city_code": "YKJ"
    },
    {
        "time_zone": "Europe/Moscow",
        "name": "Шереметьево",
        "flightable": true,
        "coordinates": {
            "lon": 37.416573,
            "lat": 55.966324
        },
        "code": "SVO",
        "name_translations": {
            "en": "Sheremetyevo International Airport"
        },
        "country_code": "RU",
        "city_code": "MOW"
    },
    {
        "time_zone": "Asia/Kamchatka",
        "name": "Елизово",
        "flightable": true,
        "coordinates": {
            "lon": 158.65,
            "lat": 53.016666
        },
        "code": "PKC",
        "name_translations": {
            "en": "Petropavlovsk-Kamchatsky Airport"
        },
        "country_code": "RU",
        "city_code": "PKC"
    },
    {
        "time_zone": "America/Montreal",
        "name": "Сан-Юбер",
        "flightable": true,
        "coordinates": {
            "lon": -73.6,
            "lat": 45.5
        },
        "code": "YHU",
        "name_translations": {
            "en": "St. Hubert Airport"
        },
        "country_code": "CA",
        "city_code": "YMQ"
    },
    {
        "time_zone": "Australia/Brisbane",
        "name": null,
        "flightable": false,
        "coordinates": {
            "lon": 141.04167,
            "lat": -26.7
        },
        "code": "AAB",
        "name_translations": {
            "en": "Arrabury"
        },
        "country_code": "AU",
        "city_code": "AAB"
    },
    {
        "time_zone": "Africa/Johannesburg",
        "name": "Мала-Мала",
        "flightable": false,
        "coordinates": {
            "lon": 31.533333,
            "lat": -24.8
        },
        "code": "AAM",
        "name_translations": {
            "en": "Mala Mala"
        },
        "country_code": "ZA",
        "city_code": "AAM"
    },
    {
        "time_zone": "Africa/Cairo",
        "name": null,
        "flightable": false,
        "coordinates": {
            "lon": 33.75,
            "lat": 31.133333
        },
        "code": "AAC",
        "name_translations": {
            "en": "El Arish International Airport"
        },
        "country_code": "EG",
        "city_code": "AAC"
    },
    {
        "time_zone": "America/Nome",
        "name": null,
        "flightable": false,
        "coordinates": {
            "lon": -165.6,
            "lat": 54.233334
        },
        "code": "LHB",
        "name_translations": {
            "en": "Lost Harbor Sea Port"
        },
        "country_code": "US",
        "city_code": "LHB"
    },
    {
        "time_zone": "Indian/Antananarivo",
        "name": null,
        "flightable": false,
        "coordinates": {
            "lon": -44.45,
            "lat": -16.583332
        },
        "code": "NKO",
        "name_translations": {
            "en": "Ankokoambo"
        },
        "country_code": "MG",
        "city_code": "NKO"
    },
    {
        "time_zone": "America/Vancouver",
        "name": null,
        "flightable": false,
        "coordinates": {
            "lon": -125.13333,
            "lat": 50.38333
        },
        "code": "YIG",
        "name_translations": {
            "en": "Big Bay Marina"
        },
        "country_code": "CA",
        "city_code": "YIG"
    },
    {
        "time_zone": "Europe/Moscow",
        "name": "Кресты",
        "flightable": true,
        "coordinates": {
            "lon": 28.3,
            "lat": 57.816666
        },
        "code": "PKV",
        "name_translations": {
            "en": "Pskov Airport"
        },
        "country_code": "RU",
        "city_code": "PKV"
    },
    {
        "time_zone": "Asia/Tokyo",
        "name": "Чубу",
        "flightable": true,
        "coordinates": {
            "lon": 136.80528,
            "lat": 34.858334
        },
        "code": "NGO",
        "name_translations": {
            "en": "Chubu Centrair International Airport"
        },
        "country_code": "JP",
        "city_code": "NGO"
    },
    {
        "time_zone": "America/Winnipeg",
        "name": "Гарден-Хилл",
        "flightable": true,
        "coordinates": {
            "lon": -94.78333,
            "lat": 54.2
        },
        "code": "YIV",
        "name_translations": {
            "en": "Island Lake Airport"
        },
        "country_code": "CA",
        "city_code": "YIV"
    },
    {
        "time_zone": "America/Guatemala",
        "name": null,
        "flightable": false,
        "coordinates": {
            "lon": -91.5,
            "lat": 14.87
        },
        "code": "AAZ",
        "name_translations": {
            "en": "Quetzaltenango"
        },
        "country_code": "GT",
        "city_code": "AAZ"
    },
    {
        "time_zone": "America/Montreal",
        "name": null,
        "flightable": false,
        "coordinates": {
            "lon": -73.333336,
            "lat": 45.333332
        },
        "code": "YJN",
        "name_translations": {
            "en": "St Jean"
        },
        "country_code": "CA",
        "city_code": "YJN"
    },
    {
        "time_zone": "Asia/Novokuznetsk",
        "name": "Богашёво",
        "flightable": true,
        "coordinates": {
            "lon": 84.96667,
            "lat": 56.5
        },
        "code": "TOF",
        "name_translations": {
            "en": "Tomsk Airport"
        },
        "country_code": "RU",
        "city_code": "TOF"
    },
    {
        "time_zone": "Asia/Krasnoyarsk",
        "name": "Абакан",
        "flightable": true,
        "coordinates": {
            "lon": 91.5,
            "lat": 53.716667
        },
        "code": "ABA",
        "name_translations": {
            "en": "Abakan Airport"
        },
        "country_code": "RU",
        "city_code": "ABA"
    },
    {
        "time_zone": "America/Scoresbysund",
        "name": "Иллоккортоормиут",
        "flightable": false,
        "coordinates": {
            "lon": -21.666668,
            "lat": 70.583336
        },
        "code": "OBY",
        "name_translations": {
            "en": "Ittoqqortoormiit"
        },
        "country_code": "GL",
        "city_code": "OBY"
    },
    {
        "time_zone": "Pacific/Guadalcanal",
        "name": "Мунда",
        "flightable": true,
        "coordinates": {
            "lon": 157.26971,
            "lat": -8.32794
        },
        "code": "MUA",
        "name_translations": {
            "en": "Munda Airport"
        },
        "country_code": "SB",
        "city_code": "MUA"
    },
    {
        "time_zone": "Asia/Tokyo",
        "name": "Нагасаки",
        "flightable": true,
        "coordinates": {
            "lon": 129.92258,
            "lat": 32.9144
        },
        "code": "NGS",
        "name_translations": {
            "en": "Nagasaki Airport"
        },
        "country_code": "JP",
        "city_code": "NGS"
    },
    {
        "time_zone": "America/Chicago",
        "name": "Альберт Ли",
        "flightable": false,
        "coordinates": {
            "lon": -93.36667,
            "lat": 43.65
        },
        "code": "AEL",
        "name_translations": {
            "en": "Albert Lea"
        },
        "country_code": "US",
        "city_code": "AEL"
    },
    {
        "time_zone": "Asia/Tehran",
        "name": "Абадан",
        "flightable": true,
        "coordinates": {
            "lon": 48.226597,
            "lat": 30.363905
        },
        "code": "ABD",
        "name_translations": {
            "en": "Abadan Airport"
        },
        "country_code": "IR",
        "city_code": "ABD"
    },
    {
        "time_zone": "Asia/Yekaterinburg",
        "name": "Баландино",
        "flightable": true,
        "coordinates": {
            "lon": 61.51235,
            "lat": 55.297504
        },
        "code": "CEK",
        "name_translations": {
            "en": "Chelyabinsk International Airport"
        },
        "country_code": "RU",
        "city_code": "CEK"
    },
    {
        "time_zone": "America/Regina",
        "name": null,
        "flightable": false,
        "coordinates": {
            "lon": -76.6,
            "lat": 44.25
        },
        "code": "YKC",
        "name_translations": {
            "en": "Collins Bay"
        },
        "country_code": "CA",
        "city_code": "YKC"
    },
    {
        "time_zone": "Europe/London",
        "name": null,
        "flightable": false,
        "coordinates": {
            "lon": -0.366667,
            "lat": 51.533333
        },
        "code": "NHT",
        "name_translations": {
            "en": "Northolt"
        },
        "country_code": "GB",
        "city_code": "NHT"
    },
    {
        "time_zone": "Australia/Brisbane",
        "name": "Альфа",
        "flightable": false,
        "coordinates": {
            "lon": 146.63333,
            "lat": -23.65
        },
        "code": "ABH",
        "name_translations": {
            "en": "Alpha"
        },
        "country_code": "AU",
        "city_code": "ABH"
    },
    {
        "time_zone": "Asia/Omsk",
        "name": "Омск",
        "flightable": true,
        "coordinates": {
            "lon": 73.3167,
            "lat": 54.957455
        },
        "code": "OMS",
        "name_translations": {
            "en": "Omsk Airport"
        },
        "country_code": "RU",
        "city_code": "OMS"
    },
    {
        "time_zone": "America/Chicago",
        "name": null,
        "flightable": false,
        "coordinates": {
            "lon": -97.38639,
            "lat": 42.916943
        },
        "code": "YKN",
        "name_translations": {
            "en": "Chan Gurney"
        },
        "country_code": "US",
        "city_code": "YKN"
    },
    {
        "time_zone": "Africa/Abidjan",
        "name": "Феликс Боини",
        "flightable": true,
        "coordinates": {
            "lon": -3.933015,
            "lat": 5.254879
        },
        "code": "ABJ",
        "name_translations": {
            "en": "Felix Houphouet Boigny Airport"
        },
        "country_code": "CI",
        "city_code": "ABJ"
    },
    {
        "time_zone": "Asia/Yakutsk",
        "name": "Алдан",
        "flightable": false,
        "coordinates": {
            "lon": 125.4,
            "lat": 58.6
        },
        "code": "ADH",
        "name_translations": {
            "en": "Aldan"
        },
        "country_code": "RU",
        "city_code": "ADH"
    },
    {
        "time_zone": "America/Denver",
        "name": null,
        "flightable": false,
        "coordinates": {
            "lon": -111.85,
            "lat": 48.5
        },
        "code": "SBX",
        "name_translations": {
            "en": "Shelby"
        },
        "country_code": "US",
        "city_code": "SBX"
    },
    {
        "time_zone": "America/Regina",
        "name": null,
        "flightable": false,
        "coordinates": {
            "lon": -109.166664,
            "lat": 51.45
        },
        "code": "YKY",
        "name_translations": {
            "en": "Kindersley"
        },
        "country_code": "CA",
        "city_code": "YKY"
    },
    {
        "time_zone": "Asia/Anadyr",
        "name": "Угольный",
        "flightable": true,
        "coordinates": {
            "lon": 177.75,
            "lat": 64.73333
        },
        "code": "DYR",
        "name_translations": {
            "en": "Anadyr Airport"
        },
        "country_code": "RU",
        "city_code": "DYR"
    },
    {
        "time_zone": "Europe/Guernsey",
        "name": "Блэй",
        "flightable": true,
        "coordinates": {
            "lon": -2.215369,
            "lat": 49.709347
        },
        "code": "ACI",
        "name_translations": {
            "en": "Alderney Airport"
        },
        "country_code": "GB",
        "city_code": "ACI"
    },
    {
        "time_zone": "America/Toronto",
        "name": null,
        "flightable": false,
        "coordinates": {
            "lon": -79.36667,
            "lat": 43.86667
        },
        "code": "YKZ",
        "name_translations": {
            "en": "Buttonville Municipalcipal"
        },
        "country_code": "CA",
        "city_code": "YTO"
    },
    {
        "time_zone": "America/Bogota",
        "name": "Арика",
        "flightable": false,
        "coordinates": {
            "lon": -71.833336,
            "lat": -2
        },
        "code": "ACM",
        "name_translations": {
            "en": "Arica"
        },
        "country_code": "CO",
        "city_code": "ACM"
    },
    {
        "time_zone": "America/Chicago",
        "name": "Уэйко",
        "flightable": true,
        "coordinates": {
            "lon": -97.22321,
            "lat": 31.609133
        },
        "code": "ACT",
        "name_translations": {
            "en": "Waco Municipal Airport"
        },
        "country_code": "US",
        "city_code": "ACT"
    },
    {
        "time_zone": "Asia/Srednekolymsk",
        "name": "Южно-Сахалинск",
        "flightable": true,
        "coordinates": {
            "lon": 142.75,
            "lat": 46.966667
        },
        "code": "UUS",
        "name_translations": {
            "en": "Yuzhno-Sakhalinsk Airport"
        },
        "country_code": "RU",
        "city_code": "UUS"
    },
    {
        "time_zone": "America/Edmonton",
        "name": null,
        "flightable": false,
        "coordinates": {
            "lon": -112.01667,
            "lat": 54.766666
        },
        "code": "YLB",
        "name_translations": {
            "en": "Lac Biche"
        },
        "country_code": "CA",
        "city_code": "YLB"
    },
    {
        "time_zone": "Asia/Yakutsk",
        "name": "Благовещенск",
        "flightable": true,
        "coordinates": {
            "lon": 127.4,
            "lat": 50.416668
        },
        "code": "BQS",
        "name_translations": {
            "en": "Blagoveschensk Airport"
        },
        "country_code": "RU",
        "city_code": "BQS"
    },
    {
        "time_zone": "Pacific/Tarawa",
        "name": "Никунау",
        "flightable": false,
        "coordinates": {
            "lon": 176.41667,
            "lat": -1.333333
        },
        "code": "NIG",
        "name_translations": {
            "en": "Nikunau"
        },
        "country_code": "KI",
        "city_code": "NIG"
    },
    {
        "time_zone": "America/Matamoros",
        "name": null,
        "flightable": false,
        "coordinates": {
            "lon": -100.916664,
            "lat": 29.3
        },
        "code": "ACN",
        "name_translations": {
            "en": "International"
        },
        "country_code": "MX",
        "city_code": "ACN"
    },
    {
        "time_zone": "Asia/Tehran",
        "name": null,
        "flightable": false,
        "coordinates": {
            "lon": 61.542244,
            "lat": 31.087694
        },
        "code": "ACZ",
        "name_translations": {
            "en": "Zabol Airport"
        },
        "country_code": "IR",
        "city_code": "ACZ"
    },
    {
        "time_zone": "Europe/Moscow",
        "name": "Грабцево",
        "flightable": true,
        "coordinates": {
            "lon": 36.368889,
            "lat": 54.546667
        },
        "code": "KLF",
        "name_translations": {
            "en": "Grabtsevo Airport"
        },
        "country_code": "RU",
        "city_code": "KLF"
    },
    {
        "time_zone": "America/Yellowknife",
        "name": null,
        "flightable": false,
        "coordinates": {
            "lon": -117.26667,
            "lat": 63.15
        },
        "code": "YLE",
        "name_translations": {
            "en": "Wha Ti"
        },
        "country_code": "CA",
        "city_code": "YLE"
    },
    {
        "time_zone": "Africa/Brazzaville",
        "name": "Нкайи",
        "flightable": false,
        "coordinates": {
            "lon": 13.3,
            "lat": -4.216667
        },
        "code": "NKY",
        "name_translations": {
            "en": "Nkayi"
        },
        "country_code": "CG",
        "city_code": "NKY"
    },
    {
        "time_zone": "Europe/Helsinki",
        "name": null,
        "flightable": false,
        "coordinates": {
            "lon": 24.72889,
            "lat": 64.05444
        },
        "code": "YLI",
        "name_translations": {
            "en": "Ylivieska"
        },
        "country_code": "FI",
        "city_code": "YLI"
    },
    {
        "time_zone": "Europe/Moscow",
        "name": "Чебоксары",
        "flightable": true,
        "coordinates": {
            "lon": 47.266666,
            "lat": 56.13333
        },
        "code": "CSY",
        "name_translations": {
            "en": "Cheboksary Airport"
        },
        "country_code": "RU",
        "city_code": "CSY"
    },
    {
        "time_zone": "America/Adak",
        "name": null,
        "flightable": false,
        "coordinates": {
            "lon": -176.64473,
            "lat": 51.88278
        },
        "code": "ADK",
        "name_translations": {
            "en": "Adak Island Ns"
        },
        "country_code": "US",
        "city_code": "ADK"
    },
    {
        "time_zone": "Asia/Colombo",
        "name": null,
        "flightable": false,
        "coordinates": {
            "lon": 81.625275,
            "lat": 7.336389
        },
        "code": "ADP",
        "name_translations": {
            "en": "Ampara"
        },
        "country_code": "LK",
        "city_code": "ADP"
    },
    {
        "time_zone": "America/Bogota",
        "name": "Андес",
        "flightable": false,
        "coordinates": {
            "lon": -75.933334,
            "lat": 5.666667
        },
        "code": "ADN",
        "name_translations": {
            "en": "Andes"
        },
        "country_code": "CO",
        "city_code": "ADN"
    },
    {
        "time_zone": "America/Regina",
        "name": null,
        "flightable": false,
        "coordinates": {
            "lon": -108.666664,
            "lat": 54.5
        },
        "code": "YLJ",
        "name_translations": {
            "en": "Meadow Lake"
        },
        "country_code": "CA",
        "city_code": "YLJ"
    },
    {
        "time_zone": "Europe/Simferopol",
        "name": "Симферополь",
        "flightable": true,
        "coordinates": {
            "lon": 33.99819,
            "lat": 45.020657
        },
        "code": "SIP",
        "name_translations": {
            "en": "Simferopol International Airport"
        },
        "country_code": "KX",
        "city_code": "SIP"
    },
    {
        "time_zone": "Africa/Ndjamena",
        "name": "Абеше",
        "flightable": false,
        "coordinates": {
            "lon": 20.850834,
            "lat": 13.851389
        },
        "code": "AEH",
        "name_translations": {
            "en": "Abéché"
        },
        "country_code": "TD",
        "city_code": "AEH"
    },
    {
        "time_zone": "America/Winnipeg",
        "name": null,
        "flightable": false,
        "coordinates": {
            "lon": -100.03333,
            "lat": 56.5
        },
        "code": "YLR",
        "name_translations": {
            "en": "Leaf Rapids"
        },
        "country_code": "CA",
        "city_code": "YLR"
    },
    {
        "time_zone": "Asia/Vladivostok",
        "name": "Хабаровск",
        "flightable": true,
        "coordinates": {
            "lon": 135.16861,
            "lat": 48.524563
        },
        "code": "KHV",
        "name_translations": {
            "en": "Khabarovsk Airport"
        },
        "country_code": "RU",
        "city_code": "KHV"
    },
    {
        "time_zone": "Asia/Tehran",
        "name": "Ардабил",
        "flightable": true,
        "coordinates": {
            "lon": 48.42125,
            "lat": 38.323826
        },
        "code": "ADU",
        "name_translations": {
            "en": "Ardabil Airport"
        },
        "country_code": "IR",
        "city_code": "ADU"
    },
    {
        "time_zone": "Pacific/Tarawa",
        "name": "Абемама-Атолл",
        "flightable": false,
        "coordinates": {
            "lon": 173.85,
            "lat": 0.483333
        },
        "code": "AEA",
        "name_translations": {
            "en": "Abemama Atoll"
        },
        "country_code": "KI",
        "city_code": "AEA"
    },
    {
        "time_zone": "America/Vancouver",
        "name": "Келоуна",
        "flightable": true,
        "coordinates": {
            "lon": -119.38139,
            "lat": 49.95154
        },
        "code": "YLW",
        "name_translations": {
            "en": "Kelowna International Airport"
        },
        "country_code": "CA",
        "city_code": "YLW"
    },
    {
        "time_zone": "America/Argentina/Mendoza",
        "name": "Сан-Рафаэль",
        "flightable": true,
        "coordinates": {
            "lon": -68.40056,
            "lat": -34.58917
        },
        "code": "AFA",
        "name_translations": {
            "en": "San Rafael Airport"
        },
        "country_code": "AR",
        "city_code": "AFA"
    },
    {
        "time_zone": "America/Cuiaba",
        "name": "Альта-Флореста",
        "flightable": true,
        "coordinates": {
            "lon": -56.104767,
            "lat": -9.872456
        },
        "code": "AFL",
        "name_translations": {
            "en": "Alta Floresta Airport"
        },
        "country_code": "BR",
        "city_code": "AFL"
    },
    {
        "time_zone": "America/New_York",
        "name": null,
        "flightable": false,
        "coordinates": {
            "lon": -72.066666,
            "lat": 42.833332
        },
        "code": "AFN",
        "name_translations": {
            "en": "Municipal"
        },
        "country_code": "US",
        "city_code": "AFN"
    },
    {
        "time_zone": "Asia/Riyadh",
        "name": "Абха",
        "flightable": true,
        "coordinates": {
            "lon": 42.657574,
            "lat": 18.23429
        },
        "code": "AHB",
        "name_translations": {
            "en": "Abha Regional Airport"
        },
        "country_code": "SA",
        "city_code": "AHB"
    },
    {
        "time_zone": "America/New_York",
        "name": "Сэнфорд",
        "flightable": true,
        "coordinates": {
            "lon": -81.2432,
            "lat": 28.775118
        },
        "code": "SFB",
        "name_translations": {
            "en": "Orlando Sanford International Airport"
        },
        "country_code": "US",
        "city_code": "ORL"
    },
    {
        "time_zone": "Africa/Nouakchott",
        "name": "Нуакшот",
        "flightable": true,
        "coordinates": {
            "lon": -15.952041,
            "lat": 18.098148
        },
        "code": "NKC",
        "name_translations": {
            "en": "Nouakchott International Airport"
        },
        "country_code": "MR",
        "city_code": "NKC"
    },
    {
        "time_zone": "America/Vancouver",
        "name": null,
        "flightable": false,
        "coordinates": {
            "lon": -122.63084,
            "lat": 49.100834
        },
        "code": "YLY",
        "name_translations": {
            "en": "Langley Regional"
        },
        "country_code": "CA",
        "city_code": "YLY"
    },
    {
        "time_zone": "Asia/Colombo",
        "name": null,
        "flightable": false,
        "coordinates": {
            "lon": -96.00694,
            "lat": 40.668888
        },
        "code": "AFK",
        "name_translations": {
            "en": "Kondavattavan Tank"
        },
        "country_code": "LK",
        "city_code": "ADP"
    },
    {
        "time_zone": "America/Bahia",
        "name": null,
        "flightable": false,
        "coordinates": {
            "lon": -40.183334,
            "lat": -10.45
        },
        "code": "SEI",
        "name_translations": {
            "en": "Senhor Do Bonfim"
        },
        "country_code": "BR",
        "city_code": "SEI"
    },
    {
        "time_zone": "America/Whitehorse",
        "name": null,
        "flightable": false,
        "coordinates": {
            "lon": -135.87361,
            "lat": 63.61639
        },
        "code": "YMA",
        "name_translations": {
            "en": "Mayo"
        },
        "country_code": "CA",
        "city_code": "YMA"
    },
    {
        "time_zone": "Pacific/Port_Moresby",
        "name": "Кагуа",
        "flightable": false,
        "coordinates": {
            "lon": 143.84666,
            "lat": -6.403333
        },
        "code": "AGK",
        "name_translations": {
            "en": "Kagua"
        },
        "country_code": "PG",
        "city_code": "AGK"
    },
    {
        "time_zone": "America/Anchorage",
        "name": null,
        "flightable": false,
        "coordinates": {
            "lon": -154.16667,
            "lat": 56.944443
        },
        "code": "AKK",
        "name_translations": {
            "en": "Akhiok SPB"
        },
        "country_code": "US",
        "city_code": "AKK"
    },
    {
        "time_zone": "Europe/Moscow",
        "name": "Казань",
        "flightable": true,
        "coordinates": {
            "lon": 49.29824,
            "lat": 55.60844
        },
        "code": "KZN",
        "name_translations": {
            "en": "Kazan International Airport"
        },
        "country_code": "RU",
        "city_code": "KZN"
    },
    {
        "time_zone": "Asia/Kolkata",
        "name": null,
        "flightable": true,
        "coordinates": {
            "lon": 77.962776,
            "lat": 27.158333
        },
        "code": "AGR",
        "name_translations": {
            "en": "Kheria"
        },
        "country_code": "IN",
        "city_code": "AGR"
    },
    {
        "time_zone": "America/Toronto",
        "name": null,
        "flightable": false,
        "coordinates": {
            "lon": -85.86667,
            "lat": 49.083332
        },
        "code": "YMG",
        "name_translations": {
            "en": "Manitouwadge"
        },
        "country_code": "CA",
        "city_code": "YMG"
    },
    {
        "time_zone": "America/Sitka",
        "name": "Анита Бэй",
        "flightable": false,
        "coordinates": {
            "lon": -132.38333,
            "lat": 56.233334
        },
        "code": "AIB",
        "name_translations": {
            "en": "Anita Bay"
        },
        "country_code": "US",
        "city_code": "AIB"
    },
    {
        "time_zone": "America/Montreal",
        "name": "Мирабель",
        "flightable": true,
        "coordinates": {
            "lon": -74.03,
            "lat": 45.666668
        },
        "code": "YMX",
        "name_translations": {
            "en": "Mirabel International Airport"
        },
        "country_code": "CA",
        "city_code": "YMQ"
    },
    {
        "time_zone": "Asia/Krasnoyarsk",
        "name": "Норильск",
        "flightable": true,
        "coordinates": {
            "lon": 87.339806,
            "lat": 69.32312
        },
        "code": "NSK",
        "name_translations": {
            "en": "Noril'sk Airport"
        },
        "country_code": "RU",
        "city_code": "NSK"
    },
    {
        "time_zone": "Asia/Tokyo",
        "name": "Йонагуни-Жима",
        "flightable": false,
        "coordinates": {
            "lon": 122.97639,
            "lat": 24.461111
        },
        "code": "OGN",
        "name_translations": {
            "en": "Yonaguni Jima"
        },
        "country_code": "JP",
        "city_code": "OGN"
    },
    {
        "time_zone": "Pacific/Tahiti",
        "name": null,
        "flightable": false,
        "coordinates": {
            "lon": -146.25694,
            "lat": -14.428056
        },
        "code": "AHE",
        "name_translations": {
            "en": "Ahe Airport"
        },
        "country_code": "PF",
        "city_code": "AHE"
    },
    {
        "time_zone": "America/Mexico_City",
        "name": "Синоп",
        "flightable": false,
        "coordinates": {
            "lon": -99.15,
            "lat": 19.4
        },
        "code": "NLU",
        "name_translations": {
            "en": "Santa Lucia"
        },
        "country_code": "MX",
        "city_code": "MEX"
    },
    {
        "time_zone": "Australia/Perth",
        "name": null,
        "flightable": false,
        "coordinates": {
            "lon": 119.23333,
            "lat": -22.766666
        },
        "code": "YNN",
        "name_translations": {
            "en": "Yandi"
        },
        "country_code": "AU",
        "city_code": "YNN"
    },
    {
        "time_zone": "Europe/Rome",
        "name": null,
        "flightable": false,
        "coordinates": null,
        "code": "ZIE",
        "name_translations": {
            "en": "Harbour (Eolie Island)"
        },
        "country_code": "IT",
        "city_code": "ZIE"
    },
    {
        "time_zone": "America/New_York",
        "name": "Атенс-Бен Эпс",
        "flightable": false,
        "coordinates": {
            "lon": -83.32472,
            "lat": 33.95195
        },
        "code": "AHN",
        "name_translations": {
            "en": "Athens-Ben Epps"
        },
        "country_code": "US",
        "city_code": "AHN"
    },
    {
        "time_zone": "Europe/Paris",
        "name": "Кампо-Дель-Оро",
        "flightable": true,
        "coordinates": {
            "lon": 8.794013,
            "lat": 41.91987
        },
        "code": "AJA",
        "name_translations": {
            "en": "Ajaccio Napoleon Bonaparte Airport"
        },
        "country_code": "FR",
        "city_code": "AJA"
    },
    {
        "time_zone": "America/Tegucigalpa",
        "name": "Ахуас",
        "flightable": false,
        "coordinates": {
            "lon": -84.425,
            "lat": 15.441667
        },
        "code": "AHS",
        "name_translations": {
            "en": "Ahuas"
        },
        "country_code": "HN",
        "city_code": "AHS"
    },
    {
        "time_zone": "Europe/Copenhagen",
        "name": "Орхус (автовокзал)",
        "flightable": true,
        "coordinates": {
            "lon": 10.203921,
            "lat": 56.162939
        },
        "code": "ZBU",
        "name_translations": {
            "en": "Aarhus Limo"
        },
        "country_code": "DK",
        "city_code": "AAR"
    },
    {
        "time_zone": "Europe/Moscow",
        "name": "Бегишево",
        "flightable": true,
        "coordinates": {
            "lon": 52.10341,
            "lat": 55.564125
        },
        "code": "NBC",
        "name_translations": {
            "en": "Begishevo Airport"
        },
        "country_code": "RU",
        "city_code": "NBC"
    },
    {
        "time_zone": "Africa/Luanda",
        "name": "Андуло",
        "flightable": false,
        "coordinates": {
            "lon": 17.25,
            "lat": -11.25
        },
        "code": "ANL",
        "name_translations": {
            "en": "Andulo"
        },
        "country_code": "AO",
        "city_code": "ANL"
    },
    {
        "time_zone": "Africa/Casablanca",
        "name": "Эль-Хосейма",
        "flightable": true,
        "coordinates": {
            "lon": -3.836944,
            "lat": 35.17972
        },
        "code": "AHU",
        "name_translations": {
            "en": "Charif Al Idrissi Airport"
        },
        "country_code": "MA",
        "city_code": "AHU"
    },
    {
        "time_zone": "Asia/Yekaterinburg",
        "name": "Нижневартовск",
        "flightable": true,
        "coordinates": {
            "lon": 76.49145,
            "lat": 60.9476
        },
        "code": "NJC",
        "name_translations": {
            "en": "Nizhnevartovsk Airport"
        },
        "country_code": "RU",
        "city_code": "NJC"
    },
    {
        "time_zone": "Asia/Seoul",
        "name": "Янъян",
        "flightable": true,
        "coordinates": {
            "lon": 128.6,
            "lat": 38.066666
        },
        "code": "YNY",
        "name_translations": {
            "en": "Yangyang Airport"
        },
        "country_code": "KR",
        "city_code": "YNY"
    },
    {
        "time_zone": "America/Maceio",
        "name": "Аракажу",
        "flightable": true,
        "coordinates": {
            "lon": -37.072792,
            "lat": -10.987206
        },
        "code": "AJU",
        "name_translations": {
            "en": "Aracaju Airport"
        },
        "country_code": "BR",
        "city_code": "AJU"
    },
    {
        "time_zone": "Asia/Yekaterinburg",
        "name": "Кольцово",
        "flightable": true,
        "coordinates": {
            "lon": 60.804314,
            "lat": 56.750336
        },
        "code": "SVX",
        "name_translations": {
            "en": "Koltsovo International Airport"
        },
        "country_code": "RU",
        "city_code": "SVX"
    },
    {
        "time_zone": "America/Mazatlan",
        "name": "Абреохос",
        "flightable": false,
        "coordinates": {
            "lon": -113.666664,
            "lat": 26.833332
        },
        "code": "AJS",
        "name_translations": {
            "en": "Abreojos"
        },
        "country_code": "MX",
        "city_code": "AJS"
    },
    {
        "time_zone": "America/Anchorage",
        "name": "Найтмьют",
        "flightable": true,
        "coordinates": {
            "lon": -164.70084,
            "lat": 60.471046
        },
        "code": "NME",
        "name_translations": {
            "en": "Nightmute Airport"
        },
        "country_code": "US",
        "city_code": "NME"
    },
    {
        "time_zone": "America/Chicago",
        "name": null,
        "flightable": false,
        "coordinates": {
            "lon": -87.683334,
            "lat": 38.733334
        },
        "code": "LWV",
        "name_translations": {
            "en": "Municipal"
        },
        "country_code": "US",
        "city_code": "LWV"
    },
    {
        "time_zone": "Africa/Lagos",
        "name": "Акуре",
        "flightable": false,
        "coordinates": {
            "lon": 5.083333,
            "lat": 7.25
        },
        "code": "AKR",
        "name_translations": {
            "en": "Akure"
        },
        "country_code": "NG",
        "city_code": "AKR"
    },
    {
        "time_zone": "Europe/Moscow",
        "name": "Анапа",
        "flightable": true,
        "coordinates": {
            "lon": 37.316666,
            "lat": 44.9
        },
        "code": "AAQ",
        "name_translations": {
            "en": "Anapa Airport"
        },
        "country_code": "RU",
        "city_code": "AAQ"
    },
    {
        "time_zone": "America/Edmonton",
        "name": null,
        "flightable": false,
        "coordinates": {
            "lon": -110.25,
            "lat": 54.466667
        },
        "code": "YOD",
        "name_translations": {
            "en": "Cold Lake"
        },
        "country_code": "CA",
        "city_code": "YOD"
    },
    {
        "time_zone": "Asia/Makassar",
        "name": null,
        "flightable": true,
        "coordinates": {
            "lon": 116.10237,
            "lat": -8.563165
        },
        "code": "AMI",
        "name_translations": {
            "en": "Selaparang"
        },
        "country_code": "ID",
        "city_code": "AMI"
    },
    {
        "time_zone": "America/Panama",
        "name": "Сан-Мигель",
        "flightable": false,
        "coordinates": {
            "lon": -78.28333,
            "lat": 8.366667
        },
        "code": "NMG",
        "name_translations": {
            "en": "San Miguel"
        },
        "country_code": "PA",
        "city_code": "NMG"
    },
    {
        "time_zone": "America/Toronto",
        "name": null,
        "flightable": false,
        "coordinates": {
            "lon": -85.916664,
            "lat": 51.666668
        },
        "code": "YOG",
        "name_translations": {
            "en": "Ogoki"
        },
        "country_code": "CA",
        "city_code": "YOG"
    },
    {
        "time_zone": "Africa/Addis_Ababa",
        "name": "Асела",
        "flightable": false,
        "coordinates": {
            "lon": 39.11667,
            "lat": 7.966667
        },
        "code": "ALK",
        "name_translations": {
            "en": "Asela"
        },
        "country_code": "ET",
        "city_code": "ALK"
    },
    {
        "time_zone": "Asia/Damascus",
        "name": null,
        "flightable": false,
        "coordinates": {
            "lon": 37.227074,
            "lat": 36.185352
        },
        "code": "ALP",
        "name_translations": {
            "en": "Nejrab"
        },
        "country_code": "SY",
        "city_code": "ALP"
    },
    {
        "time_zone": "Europe/Paris",
        "name": "Бордо (жд вокзал)",
        "flightable": true,
        "coordinates": {
            "lon": -0.57918,
            "lat": 44.837789
        },
        "code": "ZFQ",
        "name_translations": {
            "en": "Gare de Bordeaux"
        },
        "country_code": "FR",
        "city_code": "BOD"
    },
    {
        "time_zone": "America/Denver",
        "name": null,
        "flightable": false,
        "coordinates": {
            "lon": -107.75,
            "lat": 37.15
        },
        "code": "AMK",
        "name_translations": {
            "en": "Animas Airpark"
        },
        "country_code": "US",
        "city_code": "DRO"
    },
    {
        "time_zone": "Asia/Tokyo",
        "name": "Симожисима",
        "flightable": false,
        "coordinates": {
            "lon": 125.15,
            "lat": 24.816668
        },
        "code": "SHI",
        "name_translations": {
            "en": "Shimojishima"
        },
        "country_code": "JP",
        "city_code": "SHI"
    },
    {
        "time_zone": "America/Winnipeg",
        "name": null,
        "flightable": false,
        "coordinates": {
            "lon": -95.28333,
            "lat": 54.95
        },
        "code": "YOH",
        "name_translations": {
            "en": "Oxford House"
        },
        "country_code": "CA",
        "city_code": "YOH"
    },
    {
        "time_zone": "Africa/Ndjamena",
        "name": "Мао",
        "flightable": false,
        "coordinates": {
            "lon": 15.316667,
            "lat": 14.116667
        },
        "code": "AMO",
        "name_translations": {
            "en": "Mao"
        },
        "country_code": "TD",
        "city_code": "AMO"
    },
    {
        "time_zone": "America/New_York",
        "name": "Алтуна",
        "flightable": true,
        "coordinates": {
            "lon": -78.32,
            "lat": 40.297222
        },
        "code": "AOO",
        "name_translations": {
            "en": "Altoona Airport"
        },
        "country_code": "US",
        "city_code": "AOO"
    },
    {
        "time_zone": "Asia/Tokyo",
        "name": "Йокогама",
        "flightable": false,
        "coordinates": {
            "lon": 139.46666,
            "lat": 35.466667
        },
        "code": "YOK",
        "name_translations": {
            "en": "Yokohama"
        },
        "country_code": "JP",
        "city_code": "YOK"
    },
    {
        "time_zone": "Europe/Amsterdam",
        "name": "Схипхол",
        "flightable": true,
        "coordinates": {
            "lon": 4.763385,
            "lat": 52.30907
        },
        "code": "AMS",
        "name_translations": {
            "en": "Amsterdam Airport Schiphol"
        },
        "country_code": "NL",
        "city_code": "AMS"
    },
    {
        "time_zone": "America/Yellowknife",
        "name": null,
        "flightable": false,
        "coordinates": {
            "lon": -124.07468,
            "lat": 69.35514
        },
        "code": "YPC",
        "name_translations": {
            "en": "Paulatuk"
        },
        "country_code": "CA",
        "city_code": "YPC"
    },
    {
        "time_zone": "America/New_York",
        "name": null,
        "flightable": false,
        "coordinates": {
            "lon": -84.1,
            "lat": 40.766666
        },
        "code": "AOH",
        "name_translations": {
            "en": "Allen County"
        },
        "country_code": "US",
        "city_code": "AOH"
    },
    {
        "time_zone": "Pacific/Auckland",
        "name": "Ардмор",
        "flightable": false,
        "coordinates": {
            "lon": 174.96666,
            "lat": -37.033333
        },
        "code": "AMZ",
        "name_translations": {
            "en": "Ardmore"
        },
        "country_code": "NZ",
        "city_code": "AMZ"
    },
    {
        "time_zone": "America/Toronto",
        "name": null,
        "flightable": false,
        "coordinates": {
            "lon": -78.9,
            "lat": 43.916668
        },
        "code": "YOO",
        "name_translations": {
            "en": "Oshawa"
        },
        "country_code": "CA",
        "city_code": "QWA"
    },
    {
        "time_zone": "America/Winnipeg",
        "name": null,
        "flightable": false,
        "coordinates": {
            "lon": -95.46667,
            "lat": 52.066666
        },
        "code": "ZGR",
        "name_translations": {
            "en": "Little Grand Rapids"
        },
        "country_code": "CA",
        "city_code": "ZGR"
    },
    {
        "time_zone": "Pacific/Port_Moresby",
        "name": "Нипа",
        "flightable": false,
        "coordinates": {
            "lon": 143.36667,
            "lat": -6.133333
        },
        "code": "NPG",
        "name_translations": {
            "en": "Nipa"
        },
        "country_code": "PG",
        "city_code": "NPG"
    },
    {
        "time_zone": "America/Edmonton",
        "name": null,
        "flightable": false,
        "coordinates": {
            "lon": -119.4,
            "lat": 58.5
        },
        "code": "YOP",
        "name_translations": {
            "en": "Rainbow Lake"
        },
        "country_code": "CA",
        "city_code": "YOP"
    },
    {
        "time_zone": "America/New_York",
        "name": "Ли",
        "flightable": false,
        "coordinates": {
            "lon": -76.5,
            "lat": 38.983334
        },
        "code": "ANP",
        "name_translations": {
            "en": "Lee"
        },
        "country_code": "US",
        "city_code": "ANP"
    },
    {
        "time_zone": "America/Regina",
        "name": null,
        "flightable": false,
        "coordinates": {
            "lon": -105.683334,
            "lat": 53.216667
        },
        "code": "YPA",
        "name_translations": {
            "en": "Glass Field"
        },
        "country_code": "CA",
        "city_code": "YPA"
    },
    {
        "time_zone": "Europe/Athens",
        "name": "Карпатос",
        "flightable": true,
        "coordinates": {
            "lon": 27.146729,
            "lat": 35.420685
        },
        "code": "AOK",
        "name_translations": {
            "en": "Karpathos Airport"
        },
        "country_code": "GR",
        "city_code": "AOK"
    },
    {
        "time_zone": "Europe/Rome",
        "name": null,
        "flightable": false,
        "coordinates": null,
        "code": "ZJX",
        "name_translations": {
            "en": "Harbour (Eolie Island)"
        },
        "country_code": "IT",
        "city_code": "ZJX"
    },
    {
        "time_zone": "America/Anchorage",
        "name": "Анвик",
        "flightable": true,
        "coordinates": {
            "lon": -160.18889,
            "lat": 62.647778
        },
        "code": "ANV",
        "name_translations": {
            "en": "Anvik Airport"
        },
        "country_code": "US",
        "city_code": "ANV"
    },
    {
        "time_zone": "America/Argentina/Cordoba",
        "name": null,
        "flightable": false,
        "coordinates": {
            "lon": -57.15,
            "lat": -29.683332
        },
        "code": "AOL",
        "name_translations": {
            "en": "Paso De Los Libres"
        },
        "country_code": "AR",
        "city_code": "AOL"
    },
    {
        "time_zone": "Europe/Moscow",
        "name": "Бугульма",
        "flightable": true,
        "coordinates": {
            "lon": 52.816666,
            "lat": 54.61667
        },
        "code": "UUA",
        "name_translations": {
            "en": "Bugulma Airport"
        },
        "country_code": "RU",
        "city_code": "UUA"
    },
    {
        "time_zone": "America/New_York",
        "name": null,
        "flightable": false,
        "coordinates": {
            "lon": -81.46778,
            "lat": 41.04
        },
        "code": "AKC",
        "name_translations": {
            "en": "Fulton International"
        },
        "country_code": "US",
        "city_code": "CAK"
    },
    {
        "time_zone": "America/Chicago",
        "name": null,
        "flightable": false,
        "coordinates": {
            "lon": -98.03333,
            "lat": 37.15
        },
        "code": "ANY",
        "name_translations": {
            "en": "Anthony"
        },
        "country_code": "US",
        "city_code": "ANY"
    },
    {
        "time_zone": "America/Toronto",
        "name": null,
        "flightable": false,
        "coordinates": {
            "lon": -79.916664,
            "lat": 45.416668
        },
        "code": "YPD",
        "name_translations": {
            "en": "Parry Sound"
        },
        "country_code": "CA",
        "city_code": "YPD"
    },
    {
        "time_zone": "America/La_Paz",
        "name": "Аполо",
        "flightable": false,
        "coordinates": {
            "lon": -68.51667,
            "lat": -14.716667
        },
        "code": "APB",
        "name_translations": {
            "en": "Apolo"
        },
        "country_code": "BO",
        "city_code": "APB"
    },
    {
        "time_zone": "America/Anchorage",
        "name": null,
        "flightable": false,
        "coordinates": {
            "lon": -149.11667,
            "lat": 60.966667
        },
        "code": "AQY",
        "name_translations": {
            "en": "Alyeska"
        },
        "country_code": "US",
        "city_code": "AQY"
    },
    {
        "time_zone": "Asia/Jayapura",
        "name": "Вамена",
        "flightable": true,
        "coordinates": {
            "lon": 138.93333,
            "lat": -4.116667
        },
        "code": "WMX",
        "name_translations": {
            "en": "Wamena Airport"
        },
        "country_code": "ID",
        "city_code": "WMX"
    },
    {
        "time_zone": "America/Detroit",
        "name": "Алпена",
        "flightable": true,
        "coordinates": {
            "lon": -83.55583,
            "lat": 45.08167
        },
        "code": "APN",
        "name_translations": {
            "en": "Alpena County Regional Airport"
        },
        "country_code": "US",
        "city_code": "APN"
    },
    {
        "time_zone": "Africa/Dar_es_Salaam",
        "name": "Кисони",
        "flightable": true,
        "coordinates": {
            "lon": 39.221184,
            "lat": -6.218466
        },
        "code": "ZNZ",
        "name_translations": {
            "en": "Zanzibar International Airport"
        },
        "country_code": "TZ",
        "city_code": "ZNZ"
    },
    {
        "time_zone": "America/Edmonton",
        "name": null,
        "flightable": false,
        "coordinates": {
            "lon": -117.44028,
            "lat": 56.22778
        },
        "code": "YPE",
        "name_translations": {
            "en": "Peace River"
        },
        "country_code": "CA",
        "city_code": "YPE"
    },
    {
        "time_zone": "America/Vancouver",
        "name": null,
        "flightable": false,
        "coordinates": {
            "lon": -123.4,
            "lat": 48.433334
        },
        "code": "YPF",
        "name_translations": {
            "en": "Esquimalt"
        },
        "country_code": "CA",
        "city_code": "YPF"
    },
    {
        "time_zone": "America/Maceio",
        "name": null,
        "flightable": false,
        "coordinates": {
            "lon": -36.65,
            "lat": -9.75
        },
        "code": "APQ",
        "name_translations": {
            "en": "Arapiraca"
        },
        "country_code": "BR",
        "city_code": "APQ"
    },
    {
        "time_zone": "America/Sao_Paulo",
        "name": null,
        "flightable": false,
        "coordinates": {
            "lon": -48.13333,
            "lat": -21.816668
        },
        "code": "AQA",
        "name_translations": {
            "en": "Araraquara"
        },
        "country_code": "BR",
        "city_code": "AQA"
    },
    {
        "time_zone": "America/Winnipeg",
        "name": null,
        "flightable": false,
        "coordinates": {
            "lon": -98.3,
            "lat": 49.966667
        },
        "code": "YPG",
        "name_translations": {
            "en": "Portage La Prairie"
        },
        "country_code": "CA",
        "city_code": "YPG"
    },
    {
        "time_zone": "Asia/Shanghai",
        "name": "Аньцин",
        "flightable": true,
        "coordinates": {
            "lon": 117.0509,
            "lat": 30.5825
        },
        "code": "AQG",
        "name_translations": {
            "en": "Anqing Tianzhushan Airport"
        },
        "country_code": "CN",
        "city_code": "AQG"
    },
    {
        "time_zone": "America/New_York",
        "name": null,
        "flightable": false,
        "coordinates": {
            "lon": -82.1,
            "lat": 39.333332
        },
        "code": "ATO",
        "name_translations": {
            "en": "Ohio University"
        },
        "country_code": "US",
        "city_code": "ATO"
    },
    {
        "time_zone": "Africa/Lubumbashi",
        "name": "Базонго",
        "flightable": false,
        "coordinates": {
            "lon": 20.428057,
            "lat": -4.313333
        },
        "code": "BAN",
        "name_translations": {
            "en": "Basongo"
        },
        "country_code": "CD",
        "city_code": "BAN"
    },
    {
        "time_zone": "America/Anchorage",
        "name": null,
        "flightable": false,
        "coordinates": {
            "lon": -145.52444,
            "lat": 68.1375
        },
        "code": "ARC",
        "name_translations": {
            "en": "Arctic Village"
        },
        "country_code": "US",
        "city_code": "ARC"
    },
    {
        "time_zone": "Asia/Shanghai",
        "name": "Мэйсянь",
        "flightable": true,
        "coordinates": {
            "lon": 116.10449,
            "lat": 24.266811
        },
        "code": "MXZ",
        "name_translations": {
            "en": "Mei Xian Airport"
        },
        "country_code": "CN",
        "city_code": "MXZ"
    },
    {
        "time_zone": "Pacific/Majuro",
        "name": null,
        "flightable": false,
        "coordinates": {
            "lon": 168.13333,
            "lat": 8
        },
        "code": "NMU",
        "name_translations": {
            "en": "Namu"
        },
        "country_code": "MH",
        "city_code": "NMU"
    },
    {
        "time_zone": "America/Vancouver",
        "name": null,
        "flightable": false,
        "coordinates": {
            "lon": -123.98066,
            "lat": 49.493492
        },
        "code": "YPT",
        "name_translations": {
            "en": "Pender Harbor"
        },
        "country_code": "CA",
        "city_code": "YPT"
    },
    {
        "time_zone": "Europe/Moscow",
        "name": "Талаги",
        "flightable": true,
        "coordinates": {
            "lon": 40.711903,
            "lat": 64.594795
        },
        "code": "ARH",
        "name_translations": {
            "en": "Talagi Airport"
        },
        "country_code": "RU",
        "city_code": "ARH"
    },
    {
        "time_zone": "America/Chicago",
        "name": "Остин",
        "flightable": false,
        "coordinates": {
            "lon": -92.98333,
            "lat": 43.666668
        },
        "code": "AUM",
        "name_translations": {
            "en": "Austin"
        },
        "country_code": "US",
        "city_code": "AUM"
    },
    {
        "time_zone": "Asia/Makassar",
        "name": "Масамба",
        "flightable": false,
        "coordinates": {
            "lon": 120.333336,
            "lat": -2.333333
        },
        "code": "MXB",
        "name_translations": {
            "en": "Masamba"
        },
        "country_code": "ID",
        "city_code": "MXB"
    },
    {
        "time_zone": "America/Chicago",
        "name": null,
        "flightable": false,
        "coordinates": {
            "lon": -89.73222,
            "lat": 45.924168
        },
        "code": "ARV",
        "name_translations": {
            "en": "Noble F. Lee"
        },
        "country_code": "US",
        "city_code": "ARV"
    },
    {
        "time_zone": "America/Toronto",
        "name": "Виндзор",
        "flightable": true,
        "coordinates": {
            "lon": -82.96389,
            "lat": 42.274166
        },
        "code": "YQG",
        "name_translations": {
            "en": "Windsor International Airport"
        },
        "country_code": "CA",
        "city_code": "YQG"
    },
    {
        "time_zone": "Australia/Melbourne",
        "name": "Авалон",
        "flightable": true,
        "coordinates": {
            "lon": 144.47308,
            "lat": -38.02637
        },
        "code": "AVV",
        "name_translations": {
            "en": "Avalon Airport"
        },
        "country_code": "AU",
        "city_code": "MEL"
    },
    {
        "time_zone": "Pacific/Port_Moresby",
        "name": "Наоро",
        "flightable": false,
        "coordinates": {
            "lon": 147.53334,
            "lat": -9.2
        },
        "code": "NOO",
        "name_translations": {
            "en": "Naoro"
        },
        "country_code": "PG",
        "city_code": "NOO"
    },
    {
        "time_zone": "Pacific/Port_Moresby",
        "name": null,
        "flightable": false,
        "coordinates": {
            "lon": 142.28334,
            "lat": -3.166667
        },
        "code": "ATP",
        "name_translations": {
            "en": "Airstrip"
        },
        "country_code": "PG",
        "city_code": "ATP"
    },
    {
        "time_zone": "America/Havana",
        "name": null,
        "flightable": false,
        "coordinates": {
            "lon": -78.79139,
            "lat": 22.025
        },
        "code": "AVI",
        "name_translations": {
            "en": "Maximo Gomez"
        },
        "country_code": "CU",
        "city_code": "AVI"
    },
    {
        "time_zone": "America/Whitehorse",
        "name": null,
        "flightable": false,
        "coordinates": {
            "lon": -128.825,
            "lat": 60.12361
        },
        "code": "YQH",
        "name_translations": {
            "en": "Watson Lake"
        },
        "country_code": "CA",
        "city_code": "YQH"
    },
    {
        "time_zone": "Pacific/Port_Moresby",
        "name": "Номад-Ривер",
        "flightable": false,
        "coordinates": {
            "lon": 142.21666,
            "lat": -6.3
        },
        "code": "NOM",
        "name_translations": {
            "en": "Nomad River"
        },
        "country_code": "PG",
        "city_code": "NOM"
    },
    {
        "time_zone": "Asia/Tokyo",
        "name": "Асахикава",
        "flightable": true,
        "coordinates": {
            "lon": 142.45454,
            "lat": 43.67109
        },
        "code": "AKJ",
        "name_translations": {
            "en": "Asahikawa Airport"
        },
        "country_code": "JP",
        "city_code": "AKJ"
    },
    {
        "time_zone": "America/Denver",
        "name": null,
        "flightable": false,
        "coordinates": {
            "lon": -105.985275,
            "lat": 32.845833
        },
        "code": "ALM",
        "name_translations": {
            "en": "Municipal"
        },
        "country_code": "US",
        "city_code": "ALM"
    },
    {
        "time_zone": "Pacific/Port_Moresby",
        "name": "Ама",
        "flightable": false,
        "coordinates": {
            "lon": 141.66667,
            "lat": -4.166667
        },
        "code": "AMF",
        "name_translations": {
            "en": "Ama"
        },
        "country_code": "PG",
        "city_code": "AMF"
    },
    {
        "time_zone": "Pacific/Port_Moresby",
        "name": "Агаун",
        "flightable": false,
        "coordinates": {
            "lon": 149.58333,
            "lat": -9.983333
        },
        "code": "AUP",
        "name_translations": {
            "en": "Agaun"
        },
        "country_code": "PG",
        "city_code": "AUP"
    },
    {
        "time_zone": "America/Resolute",
        "name": "Резольют",
        "flightable": true,
        "coordinates": {
            "lon": -94.96667,
            "lat": 74.71667
        },
        "code": "YRB",
        "name_translations": {
            "en": "Resolute Bay Airport"
        },
        "country_code": "CA",
        "city_code": "YRB"
    },
    {
        "time_zone": "Europe/Moscow",
        "name": "Нарьян-Мар",
        "flightable": true,
        "coordinates": {
            "lon": 53.15,
            "lat": 67.61667
        },
        "code": "NNM",
        "name_translations": {
            "en": "Naryan-Mar Airport"
        },
        "country_code": "RU",
        "city_code": "NNM"
    },
    {
        "time_zone": "America/Goose_Bay",
        "name": null,
        "flightable": false,
        "coordinates": {
            "lon": -57.03828,
            "lat": 53.682606
        },
        "code": "YRF",
        "name_translations": {
            "en": "Cartwright"
        },
        "country_code": "CA",
        "city_code": "YRF"
    },
    {
        "time_zone": "Pacific/Auckland",
        "name": "Фангареи",
        "flightable": true,
        "coordinates": {
            "lon": 174.36403,
            "lat": -35.76742
        },
        "code": "WRE",
        "name_translations": {
            "en": "Whangarei Airport"
        },
        "country_code": "NZ",
        "city_code": "WRE"
    },
    {
        "time_zone": "America/Edmonton",
        "name": null,
        "flightable": false,
        "coordinates": {
            "lon": -114.916664,
            "lat": 52.36667
        },
        "code": "YRM",
        "name_translations": {
            "en": "Rocky Mountain House"
        },
        "country_code": "CA",
        "city_code": "YRM"
    },
    {
        "time_zone": "Europe/Paris",
        "name": "Авиньон",
        "flightable": true,
        "coordinates": {
            "lon": 4.9,
            "lat": 43.9
        },
        "code": "AVN",
        "name_translations": {
            "en": "Avignon-Caumont Airport"
        },
        "country_code": "FR",
        "city_code": "AVN"
    },
    {
        "time_zone": "America/Montreal",
        "name": null,
        "flightable": false,
        "coordinates": {
            "lon": -69.53333,
            "lat": 47.833332
        },
        "code": "YRI",
        "name_translations": {
            "en": "Riviere Du Loup"
        },
        "country_code": "CA",
        "city_code": "YRI"
    },
    {
        "time_zone": "Asia/Shanghai",
        "name": "Наньнин",
        "flightable": true,
        "coordinates": {
            "lon": 108.1675,
            "lat": 22.61321
        },
        "code": "NNG",
        "name_translations": {
            "en": "Nanning Airport"
        },
        "country_code": "CN",
        "city_code": "NNG"
    },
    {
        "time_zone": "Africa/Libreville",
        "name": "Алове",
        "flightable": false,
        "coordinates": {
            "lon": 9.45,
            "lat": -0.75
        },
        "code": "AWE",
        "name_translations": {
            "en": "Alowe"
        },
        "country_code": "GA",
        "city_code": "AWE"
    },
    {
        "time_zone": "America/Montreal",
        "name": null,
        "flightable": false,
        "coordinates": {
            "lon": -72.21667,
            "lat": 48.516666
        },
        "code": "YRJ",
        "name_translations": {
            "en": "Roberval"
        },
        "country_code": "CA",
        "city_code": "YRJ"
    },
    {
        "time_zone": "America/Chicago",
        "name": null,
        "flightable": false,
        "coordinates": {
            "lon": -90.05,
            "lat": 35.13333
        },
        "code": "NQA",
        "name_translations": {
            "en": "Millington Regional Jetport"
        },
        "country_code": "US",
        "city_code": "MEM"
    },
    {
        "time_zone": "America/Vancouver",
        "name": null,
        "flightable": false,
        "coordinates": {
            "lon": -127.583336,
            "lat": 51.466667
        },
        "code": "YRN",
        "name_translations": {
            "en": "Rivers Inlet"
        },
        "country_code": "CA",
        "city_code": "YRN"
    },
    {
        "time_zone": "America/Anchorage",
        "name": null,
        "flightable": false,
        "coordinates": {
            "lon": -157.01694,
            "lat": 58.733334
        },
        "code": "NNK",
        "name_translations": {
            "en": "Naknek"
        },
        "country_code": "US",
        "city_code": "NNK"
    },
    {
        "time_zone": "Australia/Brisbane",
        "name": null,
        "flightable": false,
        "coordinates": {
            "lon": 145.2425,
            "lat": -22.958055
        },
        "code": "AXC",
        "name_translations": {
            "en": "Aramac"
        },
        "country_code": "AU",
        "city_code": "AXC"
    },
    {
        "time_zone": "America/Iqaluit",
        "name": "Саникилуак",
        "flightable": true,
        "coordinates": {
            "lon": -79.21667,
            "lat": 56.55
        },
        "code": "YSK",
        "name_translations": {
            "en": "Sanikiluaq Airport"
        },
        "country_code": "CA",
        "city_code": "YSK"
    },
    {
        "time_zone": "America/Los_Angeles",
        "name": "Уолла Уолла",
        "flightable": true,
        "coordinates": {
            "lon": -118.291115,
            "lat": 46.094723
        },
        "code": "ALW",
        "name_translations": {
            "en": "Walla Walla Airport"
        },
        "country_code": "US",
        "city_code": "ALW"
    },
    {
        "time_zone": "America/Anchorage",
        "name": null,
        "flightable": false,
        "coordinates": {
            "lon": -162.63333,
            "lat": 60.35
        },
        "code": "WTL",
        "name_translations": {
            "en": "Tuntutuliak"
        },
        "country_code": "US",
        "city_code": "WTL"
    },
    {
        "time_zone": "America/Montreal",
        "name": null,
        "flightable": false,
        "coordinates": {
            "lon": -72.683334,
            "lat": 46.35
        },
        "code": "YRQ",
        "name_translations": {
            "en": "Trois-Rivieres"
        },
        "country_code": "CA",
        "city_code": "YRQ"
    },
    {
        "time_zone": "America/Winnipeg",
        "name": null,
        "flightable": false,
        "coordinates": {
            "lon": -93.583336,
            "lat": 54.166668
        },
        "code": "YRS",
        "name_translations": {
            "en": "Red Sucker Lake"
        },
        "country_code": "CA",
        "city_code": "YRS"
    },
    {
        "time_zone": "Asia/Aden",
        "name": "Атак",
        "flightable": false,
        "coordinates": {
            "lon": 46.3,
            "lat": 13.866667
        },
        "code": "AXK",
        "name_translations": {
            "en": "Ataq"
        },
        "country_code": "YE",
        "city_code": "AXK"
    },
    {
        "time_zone": "America/Anchorage",
        "name": null,
        "flightable": false,
        "coordinates": {
            "lon": -154.83777,
            "lat": 59.978527
        },
        "code": "NNL",
        "name_translations": {
            "en": "Nondalton"
        },
        "country_code": "US",
        "city_code": "NNL"
    },
    {
        "time_zone": "America/Rankin_Inlet",
        "name": "Ранкин-Инлет",
        "flightable": true,
        "coordinates": {
            "lon": -92.10019,
            "lat": 62.80998
        },
        "code": "YRT",
        "name_translations": {
            "en": "Rankin Inlet Airport"
        },
        "country_code": "CA",
        "city_code": "YRT"
    },
    {
        "time_zone": "America/Nassau",
        "name": "Спринг Пойнт",
        "flightable": true,
        "coordinates": {
            "lon": -73.96667,
            "lat": 22.45
        },
        "code": "AXP",
        "name_translations": {
            "en": "Springpoint Airport"
        },
        "country_code": "BS",
        "city_code": "AXP"
    },
    {
        "time_zone": "Indian/Mahe",
        "name": "Берд-Айленд",
        "flightable": false,
        "coordinates": {
            "lon": 55.216667,
            "lat": -3.716667
        },
        "code": "BDI",
        "name_translations": {
            "en": "Bird Island"
        },
        "country_code": "SC",
        "city_code": "BDI"
    },
    {
        "time_zone": "America/Edmonton",
        "name": null,
        "flightable": false,
        "coordinates": {
            "lon": -111.166664,
            "lat": 50.2
        },
        "code": "YSD",
        "name_translations": {
            "en": "Suffield"
        },
        "country_code": "CA",
        "city_code": "YSD"
    },
    {
        "time_zone": "America/Bogota",
        "name": "Яри",
        "flightable": false,
        "coordinates": {
            "lon": -72.333336,
            "lat": -0.333333
        },
        "code": "AYI",
        "name_translations": {
            "en": "Yari"
        },
        "country_code": "CO",
        "city_code": "AYI"
    },
    {
        "time_zone": "America/Sao_Paulo",
        "name": null,
        "flightable": false,
        "coordinates": {
            "lon": -40.333332,
            "lat": -17.816668
        },
        "code": "NNU",
        "name_translations": {
            "en": "Nanuque"
        },
        "country_code": "BR",
        "city_code": "NNU"
    },
    {
        "time_zone": "America/Yellowknife",
        "name": "Форт-Смит",
        "flightable": true,
        "coordinates": {
            "lon": -111.96667,
            "lat": 60.016666
        },
        "code": "YSM",
        "name_translations": {
            "en": "Fort Smith Airport"
        },
        "country_code": "CA",
        "city_code": "YSM"
    },
    {
        "time_zone": "Asia/Makassar",
        "name": null,
        "flightable": false,
        "coordinates": {
            "lon": 117.65,
            "lat": 4.15
        },
        "code": "NNX",
        "name_translations": {
            "en": "Nunukan"
        },
        "country_code": "ID",
        "city_code": "NNX"
    },
    {
        "time_zone": "America/Phoenix",
        "name": "Финикс-Меса Гейтуэй",
        "flightable": true,
        "coordinates": {
            "lon": -111.655556,
            "lat": 33.307777
        },
        "code": "AZA",
        "name_translations": {
            "en": "Phoenix-Mesa Gateway Airport"
        },
        "country_code": "US",
        "city_code": "PHX"
    },
    {
        "time_zone": "America/Vancouver",
        "name": null,
        "flightable": false,
        "coordinates": {
            "lon": -119.23333,
            "lat": 50.683334
        },
        "code": "YSN",
        "name_translations": {
            "en": "Salmon Arm"
        },
        "country_code": "CA",
        "city_code": "YSN"
    },
    {
        "time_zone": "Asia/Tashkent",
        "name": "Андижан",
        "flightable": true,
        "coordinates": {
            "lon": 72.3,
            "lat": 40.733334
        },
        "code": "AZN",
        "name_translations": {
            "en": "Andizhan Airport"
        },
        "country_code": "UZ",
        "city_code": "AZN"
    },
    {
        "time_zone": "Europe/Paris",
        "name": "Барселонетта",
        "flightable": false,
        "coordinates": {
            "lon": 6.666667,
            "lat": 44.38333
        },
        "code": "BAE",
        "name_translations": {
            "en": "Barcelonnette"
        },
        "country_code": "FR",
        "city_code": "BAE"
    },
    {
        "time_zone": "America/Chicago",
        "name": null,
        "flightable": false,
        "coordinates": {
            "lon": -98.066666,
            "lat": 27.75
        },
        "code": "ALI",
        "name_translations": {
            "en": "International"
        },
        "country_code": "US",
        "city_code": "ALI"
    },
    {
        "time_zone": "America/Bogota",
        "name": "Виллагарсон",
        "flightable": false,
        "coordinates": {
            "lon": -76.71667,
            "lat": 1.066667
        },
        "code": "VGZ",
        "name_translations": {
            "en": "Villagarzon"
        },